{
  "myList": [
    {
      "id": "5128df48-79fc-4f0f-8b52-d06be54d0cec",
      "name": "(405) Brewing Co",
      "brewery_type": "micro",
      "address_1": "1716 Topeka St",
      "address_2": null,
      "address_3": null,
      "city": "Norman",
      "state_province": "Oklahoma",
      "postal_code": "73069-8224",
      "country": "United States",
      "longitude": "-97.46818222",
      "latitude": "35.25738891",
      "phone": "4058160490",
      "website_url": "http://www.405brewing.com",
      "state": "Oklahoma",
      "street": "1716 Topeka St"
    },
    {
      "id": "9c5a66c8-cc13-416f-a5d9-0a769c87d318",
      "name": "(512) Brewing Co",
      "brewery_type": "micro",
      "address_1": "407 Radam Ln Ste F200",
      "address_2": null,
      "address_3": null,
      "city": "Austin",
      "state_province": "Texas",
      "postal_code": "78745-1197",
      "country": "United States",
      "longitude": null,
      "latitude": null,
      "phone": "5129211545",
      "website_url": "http://www.512brewing.com",
      "state": "Texas",
      "street": "407 Radam Ln Ste F200"
    },
    {
      "id": "1ecc330f-6275-42a5-b14e-00adbed62752",
      "name": "10 Torr Distilling and Brewing",
      "brewery_type": "micro",
      "address_1": "490 Mill St",
      "address_2": null,
      "address_3": null,
      "city": "Reno",
      "state_province": "Nevada",
      "postal_code": "89502",
      "country": "United States",
      "longitude": "-119.7732015",
      "latitude": "39.5171702",
      "phone": "7755307014",
      "website_url": "http://www.10torr.com",
      "state": "Nevada",
      "street": "490 Mill St"
    },
    {
      "id": "4ffda196-dd59-44a5-9eeb-5f7fd4b58f5a",
      "name": "105 West Brewing Co",
      "brewery_type": "micro",
      "address_1": "1043 Park St",
      "address_2": null,
      "address_3": null,
      "city": "Castle Rock",
      "state_province": "Colorado",
      "postal_code": "80109-1585",
      "country": "United States",
      "longitude": "-104.8667206",
      "latitude": "39.38269495",
      "phone": "3033257321",
      "website_url": "http://www.105westbrewing.com",
      "state": "Colorado",
      "street": "1043 Park St"
    },
    {
      "id": "06e9fffb-e820-45c9-b107-b52b51013e8f",
      "name": "12Degree Brewing",
      "brewery_type": "brewpub",
      "address_1": "820 Main St",
      "address_2": null,
      "address_3": null,
      "city": "Louisville",
      "state_province": "Colorado",
      "postal_code": "80027-1865",
      "country": "United States",
      "longitude": "-105.1319826",
      "latitude": "39.9782443",
      "phone": "3035791004",
      "website_url": "http://www.12degree.com",
      "state": "Colorado",
      "street": "820 Main St"
    },
    {
      "id": "d5cb896d-3e99-4e19-9693-5e06ce987e53",
      "name": "127 Brewing",
      "brewery_type": "micro",
      "address_1": "3090 Shirley Dr",
      "address_2": null,
      "address_3": null,
      "city": "Jackson",
      "state_province": "Michigan",
      "postal_code": "49201-7010",
      "country": "United States",
      "longitude": "-84.43116792",
      "latitude": "42.28667212",
      "phone": "5172581346",
      "website_url": null,
      "state": "Michigan",
      "street": "3090 Shirley Dr"
    }
  ]
}